[
  {
    "NOM": "3 Teinturiers",
    "ADRESSE": "3 Rue des Teinturiers",
    "CP": "59491",
    "VILLE": "Villeneuve-d'Ascq",
    "WEB": "www.coworking-villeneuve-ascq.fr",
    "IMG": {
      "URL": "https://www.deskmag.com/images/articleimages/original/deskmag-coworking-6191.png"
    },
    "id": 1,
    "latitude": 50.66750905000001,
    "longitude": 3.140630301502613
  },
  {
    "NOM": "9GDM",
    "ADRESSE": "9-11 Rue Guyton de Morveau",
    "CP": "75013",
    "VILLE": "Paris",
    "WEB": "www.9gdm.com",
    "IMG": {
      "URL": "https://cap.img.pmdstatic.net/fit/http.3A.2F.2Fprd2-bone-image.2Es3-website-eu-west-1.2Eamazonaws.2Ecom.2Fcap.2F2018.2F03.2F05.2F4ac193e3-a981-400b-a6f4-9d8bc9de39f2.2Ejpeg/1200x630/background-color/ffffff/quality/70/cr/wqkgR2V0dHkgSW1hZ2VzIC8gQ0FQSVRBTA%3D%3D/teletravail-coworking-lentreprise-se-dematerialise-1275457.jpg"
    },
    "id": 2,
    "latitude": 48.8244866,
    "longitude": 2.3488965
  },
  {
    "NOM": "ADE Coworking",
    "ADRESSE": "9 Rue du Petit Châtelier",
    "CP": "44300",
    "VILLE": "Nantes",
    "WEB": "www.ade-coworking.net",
    "IMG": {
      "URL": "https://cap.img.pmdstatic.net/fit/http.3A.2F.2Fprd2-bone-image.2Es3-website-eu-west-1.2Eamazonaws.2Ecom.2Fcap.2F2019.2F12.2F26.2F6bd56f1d-e7a1-495b-94fa-c89b76875705.2Ejpeg/1200x630/background-color/ffffff/quality/70/cr/wqkgS3dlcmsgLyBDQVBJVEFM/5-pistes-pour-bien-choisir-votre-espace-de-coworking-1358535.jpg"
    },
    "id": 3,
    "latitude": 47.2461035,
    "longitude": -1.5054178
  },
  {
    "NOM": "Amabla Coworking",
    "ADRESSE": "26 Rue Louis Guérin",
    "CP": "69100",
    "VILLE": "Villeurbanne",
    "WEB": "www.amabla.org",
    "IMG": {
      "URL": "https://www.deskmag.com/images/articleimages/original/deskmag-coworking-6191.png"
    },
    "id": 4,
    "latitude": 45.7729473,
    "longitude": 4.8597472
  },
  {
    "NOM": "Anticafé",
    "ADRESSE": "59 Rue nationale",
    "CP": "75013",
    "VILLE": "Paris",
    "WEB": "www.anticafe.eu",
    "IMG": {
      "URL": "https://uploads.lebonbon.fr/source/2019/january/t59rj4f5gu_2_675.jpg"
    },
    "id": 7,
    "latitude": 48.8255145,
    "longitude": 2.3670688
  },
  {
    "NOM": "Anticafé République",
    "ADRESSE": "6 Rue du Château d'Eau",
    "CP": "75010",
    "VILLE": "Paris",
    "WEB": "www.anticafe.eu",
    "IMG": {
      "URL": "https://www.eu-startups.com/wp-content/uploads/2018/07/Coworking-Porto.png"
    },
    "id": 8,
    "latitude": 48.8694877,
    "longitude": 2.3615573
  },
  {
    "NOM": "Arrêt Minute",
    "ADRESSE": "96 Cours des Girondins",
    "CP": "33500",
    "VILLE": "Libourne",
    "WEB": "www.arretminute.fr",
    "IMG": {
      "URL": "https://spaces-wp.imgix.net/2019/04/Spaces-hennessy-road-hong-kong-hong-kong-flexible-work-space.jpg?auto=compress,format&q=30&ar=2.46:1&&fit=crop&h=584"
    },
    "id": 9,
    "latitude": 44.9110981,
    "longitude": -0.2428292
  },
  {
    "NOM": "Bastia Coworking",
    "ADRESSE": "26 Rue du Général Carbuccia",
    "CP": "20200",
    "VILLE": "Bastia",
    "WEB": "www.bastiacoworking.com",
    "IMG": {
      "URL": "https://cap.img.pmdstatic.net/fit/http.3A.2F.2Fprd2-bone-image.2Es3-website-eu-west-1.2Eamazonaws.2Ecom.2Fcap.2F2018.2F03.2F05.2F4ac193e3-a981-400b-a6f4-9d8bc9de39f2.2Ejpeg/1200x630/background-color/ffffff/quality/70/cr/wqkgR2V0dHkgSW1hZ2VzIC8gQ0FQSVRBTA%3D%3D/teletravail-coworking-lentreprise-se-dematerialise-1275457.jpg"
    },
    "id": 10,
    "latitude": 42.69570847117291,
    "longitude": 9.44921912690451
  },
  {
    "NOM": "BeCoworking",
    "ADRESSE": "60 Rue de la Jonquiére",
    "CP": "75017",
    "VILLE": "Paris",
    "WEB": "www.be-coworking.fr",
    "IMG": {
      "URL": "https://spaces-wp.imgix.net/2019/04/Spaces-hennessy-road-hong-kong-hong-kong-flexible-work-space.jpg?auto=compress,format&q=30&ar=2.46:1&&fit=crop&h=584"
    },
    "id": 11,
    "latitude": 48.893874,
    "longitude": 2.321903
  },
  {
    "NOM": "BeCoworking",
    "ADRESSE": "24 Rue des Epinettes",
    "CP": "75017",
    "VILLE": "Paris",
    "WEB": "www.be-coworking.fr",
    "IMG": {
      "URL": "https://cap.img.pmdstatic.net/fit/http.3A.2F.2Fprd2-bone-image.2Es3-website-eu-west-1.2Eamazonaws.2Ecom.2Fcap.2F2018.2F03.2F05.2F4ac193e3-a981-400b-a6f4-9d8bc9de39f2.2Ejpeg/1200x630/background-color/ffffff/quality/70/cr/wqkgR2V0dHkgSW1hZ2VzIC8gQ0FQSVRBTA%3D%3D/teletravail-coworking-lentreprise-se-dematerialise-1275457.jpg"
    },
    "id": 12,
    "latitude": 48.89584322400989,
    "longitude": 2.322736261341109
  },
  {
    "NOM": "BeCoworking",
    "ADRESSE": "Porte de Saint-Ouen",
    "CP": "75018",
    "VILLE": "Paris",
    "WEB": "www.be-coworking.fr",
    "IMG": {
      "URL": "https://www.eu-startups.com/wp-content/uploads/2018/07/Coworking-Porto.png"
    },
    "id": 13,
    "latitude": 48.8976905,
    "longitude": 2.3290742
  },
  {
    "NOM": "BeSquare",
    "ADRESSE": "62 Avenue Jean Lebas",
    "CP": "59100",
    "VILLE": "Roubaix",
    "WEB": "www.besquare-roubaix.com",
    "IMG": {
      "URL": "https://uploads.lebonbon.fr/source/2019/january/t59rj4f5gu_2_675.jpg"
    },
    "id": 14,
    "latitude": 50.69309655,
    "longitude": 3.1703777043915506
  },
  {
    "NOM": "BoostinLyon",
    "ADRESSE": "11 Place Bellecour",
    "CP": "69002",
    "VILLE": "Lyon",
    "WEB": "www.boostinlyon.fr",
    "IMG": {
      "URL": "https://www.deskmag.com/images/articleimages/original/deskmag-coworking-6191.png"
    },
    "id": 15,
    "latitude": 45.7581985,
    "longitude": 4.8334729
  },
  {
    "NOM": "BTCoworking",
    "ADRESSE": "170 Rue Raymond Losserand",
    "CP": "75014",
    "VILLE": "Paris",
    "WEB": "www.btcoworking.com",
    "IMG": {
      "URL": "https://www.deskmag.com/images/articleimages/original/deskmag-coworking-6191.png"
    },
    "id": 16,
    "latitude": 48.8300096,
    "longitude": 2.3100707
  },
  {
    "NOM": "BTCoworking",
    "ADRESSE": "209 Rue de l'Université",
    "CP": "75007",
    "VILLE": "Paris",
    "WEB": "www.btcoworking.com",
    "IMG": {
      "URL": "https://www.coworkingnantes.com/wp-content/uploads/2018/02/vue-RDC-960x560.jpg"
    },
    "id": 17,
    "latitude": 48.8603765,
    "longitude": 2.2983025
  },
  {
    "NOM": "Cocoba",
    "ADRESSE": "Rue Lekueder - ZI des Jonceaux",
    "CP": "64700",
    "VILLE": "Hendaye",
    "WEB": "www.cocoba.work",
    "IMG": {
      "URL": "https://cap.img.pmdstatic.net/fit/http.3A.2F.2Fprd2-bone-image.2Es3-website-eu-west-1.2Eamazonaws.2Ecom.2Fcap.2F2018.2F03.2F05.2F4ac193e3-a981-400b-a6f4-9d8bc9de39f2.2Ejpeg/1200x630/background-color/ffffff/quality/70/cr/wqkgR2V0dHkgSW1hZ2VzIC8gQ0FQSVRBTA%3D%3D/teletravail-coworking-lentreprise-se-dematerialise-1275457.jpg"
    },
    "id": 18,
    "latitude": 43.3482008,
    "longitude": -1.7723313
  },
  {
    "NOM": "Cocotte Minute",
    "ADRESSE": "19 Rue Jean Jacques Rousseau",
    "CP": "33340",
    "VILLE": "Lesparre-Médoc",
    "WEB": "www.cocotte-minute.info",
    "IMG": {
      "URL": "https://paris-jetequitte.com/wp-content/uploads/2018/09/espace-coworking-3.jpg"
    },
    "id": 19,
    "latitude": 48.6853385,
    "longitude": 2.376454
  },
  {
    "NOM": "Co-Factory",
    "ADRESSE": "677 Avenue de la République",
    "CP": "59800",
    "VILLE": "Lille",
    "WEB": "www.co-factory.fr",
    "IMG": {
      "URL": "https://paris-jetequitte.com/wp-content/uploads/2018/09/espace-coworking-3.jpg"
    },
    "id": 20,
    "latitude": 48.8476511,
    "longitude": 2.4310374
  },
  {
    "NOM": "CoopWorking",
    "ADRESSE": "1 Avenue de l'Angeviniére",
    "CP": "44800",
    "VILLE": "Saint-Herblain",
    "WEB": "www.coopworking-nantes.coop",
    "IMG": {
      "URL": "https://cap.img.pmdstatic.net/fit/http.3A.2F.2Fprd2-bone-image.2Es3-website-eu-west-1.2Eamazonaws.2Ecom.2Fcap.2F2019.2F12.2F26.2F6bd56f1d-e7a1-495b-94fa-c89b76875705.2Ejpeg/1200x630/background-color/ffffff/quality/70/cr/wqkgS3dlcmsgLyBDQVBJVEFM/5-pistes-pour-bien-choisir-votre-espace-de-coworking-1358535.jpg"
    },
    "id": 21,
    "latitude": 47.2448349,
    "longitude": -1.6082301
  },
  {
    "NOM": "Coswos",
    "ADRESSE": "31 Rue de l'Argenterie",
    "CP": "34000",
    "VILLE": "Montpellier",
    "WEB": "www.coswos.fr",
    "IMG": {
      "URL": "https://paris-jetequitte.com/wp-content/uploads/2018/09/espace-coworking-3.jpg"
    },
    "id": 22,
    "latitude": 43.6083639,
    "longitude": 3.8775324
  },
  {
    "NOM": "Cowork In Grenoble",
    "ADRESSE": "16 Boulevard Maréchal Lyautey",
    "CP": "38000",
    "VILLE": "Grenoble",
    "WEB": "www.co-work.fr",
    "IMG": {
      "URL": "https://www.deskmag.com/images/articleimages/original/deskmag-coworking-6191.png"
    },
    "id": 23,
    "latitude": 45.18516256410808,
    "longitude": 5.731412382173896
  },
  {
    "NOM": "Cowork in the City",
    "ADRESSE": "27 Rue des Laitiéres",
    "CP": "94300",
    "VILLE": "Vincennes",
    "WEB": "www.coworkinthecity.fr",
    "IMG": {
      "URL": "https://www.deskmag.com/images/articleimages/original/deskmag-coworking-6191.png"
    },
    "id": 24,
    "latitude": 48.8477114,
    "longitude": 2.4236068
  },
  {
    "NOM": "CoworkCube",
    "ADRESSE": "20 Cours Saint-Vincent",
    "CP": "92130",
    "VILLE": "Issy-les-Moulineaux",
    "WEB": "www.lecube.comfr",
    "IMG": {
      "URL": "https://www.coworkingnantes.com/wp-content/uploads/2018/02/vue-RDC-960x560.jpg"
    },
    "id": 25,
    "latitude": 48.820006,
    "longitude": 2.2534377
  },
  {
    "NOM": "Cowork'in Bourges",
    "ADRESSE": "20 chemin des Goulevents",
    "CP": "18000",
    "VILLE": "Bourges",
    "WEB": "www.coworkinbourges.fr",
    "IMG": {
      "URL": "https://www.eu-startups.com/wp-content/uploads/2018/07/Coworking-Porto.png"
    },
    "id": 26,
    "latitude": 47.0736878,
    "longitude": 2.3697111
  },
  {
    "NOM": "Cowork'in Montpellier",
    "ADRESSE": "19 Rue de l'Ecole de Droit",
    "CP": "34000",
    "VILLE": "Montpellier",
    "WEB": "www.coworkinmontpellier.org",
    "IMG": {
      "URL": "https://paris-jetequitte.com/wp-content/uploads/2018/09/espace-coworking-3.jpg"
    },
    "id": 27,
    "latitude": 43.6092391,
    "longitude": 3.8694646
  },
  {
    "NOM": "Coworking 78",
    "ADRESSE": "2 Rue Louis Blériot",
    "CP": "78130",
    "VILLE": "Les Mureaux",
    "WEB": "www.coworking78.fr",
    "IMG": {
      "URL": "https://uploads.lebonbon.fr/source/2019/january/t59rj4f5gu_2_675.jpg"
    },
    "id": 28,
    "latitude": 48.9756346,
    "longitude": 1.9166398
  },
  {
    "NOM": "Coworking Bordeaux",
    "ADRESSE": "180 Rue Judaïque",
    "CP": "33000",
    "VILLE": "Bordeaux",
    "WEB": "www.coworking-bordeaux.fr",
    "IMG": {
      "URL": "https://cap.img.pmdstatic.net/fit/http.3A.2F.2Fprd2-bone-image.2Es3-website-eu-west-1.2Eamazonaws.2Ecom.2Fcap.2F2018.2F03.2F05.2F4ac193e3-a981-400b-a6f4-9d8bc9de39f2.2Ejpeg/1200x630/background-color/ffffff/quality/70/cr/wqkgR2V0dHkgSW1hZ2VzIC8gQ0FQSVRBTA%3D%3D/teletravail-coworking-lentreprise-se-dematerialise-1275457.jpg"
    },
    "id": 29,
    "latitude": 44.8407058,
    "longitude": -0.592432
  },
  {
    "NOM": "Coworking Kaizen",
    "ADRESSE": "9 Rue Andrè Darbon",
    "CP": "33300",
    "VILLE": "Bordeaux",
    "WEB": "www.location-bureau-bordeaux.fr",
    "IMG": {
      "URL": "https://uploads.lebonbon.fr/source/2019/january/t59rj4f5gu_2_675.jpg"
    },
    "id": 31,
    "latitude": 44.8548964,
    "longitude": -0.5678671
  },
  {
    "NOM": "Coworking Metz",
    "ADRESSE": "7 Avenue de Blida",
    "CP": "57000",
    "VILLE": "Metz",
    "WEB": "www.coworking.a-metz.info",
    "IMG": {
      "URL": "https://cap.img.pmdstatic.net/fit/http.3A.2F.2Fprd2-bone-image.2Es3-website-eu-west-1.2Eamazonaws.2Ecom.2Fcap.2F2018.2F03.2F05.2F4ac193e3-a981-400b-a6f4-9d8bc9de39f2.2Ejpeg/1200x630/background-color/ffffff/quality/70/cr/wqkgR2V0dHkgSW1hZ2VzIC8gQ0FQSVRBTA%3D%3D/teletravail-coworking-lentreprise-se-dematerialise-1275457.jpg"
    },
    "id": 32,
    "latitude": 49.1265202,
    "longitude": 6.18414
  },
  {
    "NOM": "Coworking Rodez",
    "ADRESSE": "4 Boulevard Gambetta",
    "CP": "12000",
    "VILLE": "Rodez",
    "WEB": "www.coworking-rodez.fr",
    "IMG": {
      "URL": "https://paris-jetequitte.com/wp-content/uploads/2018/09/espace-coworking-3.jpg"
    },
    "id": 34,
    "latitude": 44.3504178,
    "longitude": 2.5734307
  },
  {
    "NOM": "Craft",
    "ADRESSE": "24 Rue des Vinaigriers",
    "CP": "75010",
    "VILLE": "Paris",
    "WEB": "www.cafe-craft.com",
    "IMG": {
      "URL": "https://uploads.lebonbon.fr/source/2019/january/t59rj4f5gu_2_675.jpg"
    },
    "id": 35,
    "latitude": 48.8731931,
    "longitude": 2.3631738
  },
  {
    "NOM": "Darwin",
    "ADRESSE": "87 Quai des Queyries",
    "CP": "33100",
    "VILLE": "Bordeaux",
    "WEB": "www.darwin-ecosysteme.fr",
    "IMG": {
      "URL": "https://paris-jetequitte.com/wp-content/uploads/2018/09/espace-coworking-3.jpg"
    },
    "id": 36,
    "latitude": 44.849739,
    "longitude": -0.5607619
  },
  {
    "NOM": "Dojo",
    "ADRESSE": "24 Rue Béranger",
    "CP": "75003",
    "VILLE": "Paris",
    "WEB": "www.dojocrea.fr",
    "IMG": {
      "URL": "https://www.deskmag.com/images/articleimages/original/deskmag-coworking-6191.png"
    },
    "id": 39,
    "latitude": 48.8666593,
    "longitude": 2.3634404
  },
  {
    "NOM": "Desk'n Co",
    "ADRESSE": "143 Rue du Mont Blanc",
    "CP": "74700",
    "VILLE": "Sallanches",
    "WEB": "www.desk-n-co.com",
    "IMG": {
      "URL": "https://cap.img.pmdstatic.net/fit/http.3A.2F.2Fprd2-bone-image.2Es3-website-eu-west-1.2Eamazonaws.2Ecom.2Fcap.2F2018.2F03.2F05.2F4ac193e3-a981-400b-a6f4-9d8bc9de39f2.2Ejpeg/1200x630/background-color/ffffff/quality/70/cr/wqkgR2V0dHkgSW1hZ2VzIC8gQ0FQSVRBTA%3D%3D/teletravail-coworking-lentreprise-se-dematerialise-1275457.jpg"
    },
    "id": 38,
    "latitude": 45.9336004,
    "longitude": 6.6322894
  },
  {
    "NOM": "Coworking Plaine Images",
    "ADRESSE": "99 A boulevard Constantin Descat",
    "CP": "59200",
    "VILLE": "Tourcoing",
    "WEB": "www.plaine-images.fr",
    "IMG": {
      "URL": "https://uploads.lebonbon.fr/source/2019/january/t59rj4f5gu_2_675.jpg"
    },
    "id": 37,
    "latitude": 50.7025109,
    "longitude": 3.1595931
  },
  {
    "NOM": "Dojo",
    "ADRESSE": "77 Avenue de la République",
    "CP": "75010",
    "VILLE": "Paris",
    "WEB": "www.dojocrea.fr",
    "IMG": {
      "URL": "https://www.eu-startups.com/wp-content/uploads/2018/07/Coworking-Porto.png"
    },
    "id": 40,
    "latitude": 48.8643534,
    "longitude": 2.3800865
  },
  {
    "NOM": "Dot Parade",
    "ADRESSE": "26 Bis Rue des Olivettes",
    "CP": "44000",
    "VILLE": "Nantes",
    "WEB": "www.dotparade.com",
    "IMG": {
      "URL": "https://www.eu-startups.com/wp-content/uploads/2018/07/Coworking-Porto.png"
    },
    "id": 41,
    "latitude": 47.2104704751657,
    "longitude": -1.5491236154132626
  },
  {
    "NOM": "Eb-Lab",
    "ADRESSE": "12 Boulevard Georges Clémenceau",
    "CP": "21000",
    "VILLE": "Dijon",
    "WEB": "www.eb-lab.com",
    "IMG": {
      "URL": "https://cap.img.pmdstatic.net/fit/http.3A.2F.2Fprd2-bone-image.2Es3-website-eu-west-1.2Eamazonaws.2Ecom.2Fcap.2F2018.2F03.2F05.2F4ac193e3-a981-400b-a6f4-9d8bc9de39f2.2Ejpeg/1200x630/background-color/ffffff/quality/70/cr/wqkgR2V0dHkgSW1hZ2VzIC8gQ0FQSVRBTA%3D%3D/teletravail-coworking-lentreprise-se-dematerialise-1275457.jpg"
    },
    "id": 42,
    "latitude": 47.32774353646957,
    "longitude": 5.048892327025083
  },
  {
    "NOM": "Epicentre Cowork",
    "ADRESSE": "25 Rue des Gras",
    "CP": "63000",
    "VILLE": "Clermont-Ferrand",
    "WEB": "www.epicentrecowork.org",
    "IMG": {
      "URL": "https://uploads.lebonbon.fr/source/2019/january/t59rj4f5gu_2_675.jpg"
    },
    "id": 43,
    "latitude": 45.778662,
    "longitude": 3.0830417
  },
  {
    "NOM": "Espace Cadet",
    "ADRESSE": "5 Rue de Rochechouart",
    "CP": "75009",
    "VILLE": "Paris",
    "WEB": "www.espacecadet.com",
    "IMG": {
      "URL": "https://cap.img.pmdstatic.net/fit/http.3A.2F.2Fprd2-bone-image.2Es3-website-eu-west-1.2Eamazonaws.2Ecom.2Fcap.2F2019.2F12.2F26.2F6bd56f1d-e7a1-495b-94fa-c89b76875705.2Ejpeg/1200x630/background-color/ffffff/quality/70/cr/wqkgS3dlcmsgLyBDQVBJVEFM/5-pistes-pour-bien-choisir-votre-espace-de-coworking-1358535.jpg"
    },
    "id": 44,
    "latitude": 48.87699577023721,
    "longitude": 2.3442180270679516
  },
  {
    "NOM": "Esperluette",
    "ADRESSE": "2 Place Dumoustier",
    "CP": "44000",
    "VILLE": "Nantes",
    "WEB": "www.espace-esperluette.fr",
    "IMG": {
      "URL": "https://cap.img.pmdstatic.net/fit/http.3A.2F.2Fprd2-bone-image.2Es3-website-eu-west-1.2Eamazonaws.2Ecom.2Fcap.2F2018.2F03.2F05.2F4ac193e3-a981-400b-a6f4-9d8bc9de39f2.2Ejpeg/1200x630/background-color/ffffff/quality/70/cr/wqkgR2V0dHkgSW1hZ2VzIC8gQ0FQSVRBTA%3D%3D/teletravail-coworking-lentreprise-se-dematerialise-1275457.jpg"
    },
    "id": 45,
    "latitude": 47.2182646,
    "longitude": -1.5522254
  },
  {
    "NOM": "Eurêka Coworking",
    "ADRESSE": "4 Rue Croix de Malte",
    "CP": "45000",
    "VILLE": "Orléans",
    "WEB": "www.eurekacoworking.fr",
    "IMG": {
      "URL": "https://paris-jetequitte.com/wp-content/uploads/2018/09/espace-coworking-3.jpg"
    },
    "id": 47,
    "latitude": 47.9041346,
    "longitude": 1.9054305
  },
  {
    "NOM": "Focus digital",
    "ADRESSE": "52 Rue de Strasbourg",
    "CP": "92400",
    "VILLE": "Courbevoie",
    "WEB": "www.focusdigital.fr",
    "IMG": {
      "URL": "https://www.coworkingnantes.com/wp-content/uploads/2018/02/vue-RDC-960x560.jpg"
    },
    "id": 48,
    "latitude": 48.89148376094705,
    "longitude": 2.248313598232733
  },
  {
    "NOM": "Forum Digital",
    "ADRESSE": "Rue Léopold Sédar-Senghor",
    "CP": "14460",
    "VILLE": "Colombelles",
    "WEB": "www.forum-digital.fr",
    "IMG": {
      "URL": "https://www.coworkingnantes.com/wp-content/uploads/2018/02/vue-RDC-960x560.jpg"
    },
    "id": 49,
    "latitude": 49.188399,
    "longitude": -0.305539
  },
  {
    "NOM": "Gonesse Factory",
    "ADRESSE": "25 Rue Gay Lussac",
    "CP": "95500",
    "VILLE": "Gonesse",
    "WEB": "www.gonessefactory.com",
    "IMG": {
      "URL": "https://www.deskmag.com/images/articleimages/original/deskmag-coworking-6191.png"
    },
    "id": 50,
    "latitude": 48.98001301097727,
    "longitude": 2.461708900084492
  },
  {
    "NOM": "Group'Union",
    "ADRESSE": "55 Rue Paradis",
    "CP": "13006",
    "VILLE": "Marseille",
    "WEB": "www.groupunion.fr",
    "IMG": {
      "URL": "https://www.eu-startups.com/wp-content/uploads/2018/07/Coworking-Porto.png"
    },
    "id": 51,
    "latitude": 43.292107999456654,
    "longitude": 5.377716399933005
  },
  {
    "NOM": "Hubsy Café",
    "ADRESSE": "41 Rue Réaumur",
    "CP": "75003",
    "VILLE": "Paris",
    "WEB": "www.hubsy.fr",
    "IMG": {
      "URL": "https://cap.img.pmdstatic.net/fit/http.3A.2F.2Fprd2-bone-image.2Es3-website-eu-west-1.2Eamazonaws.2Ecom.2Fcap.2F2019.2F12.2F26.2F6bd56f1d-e7a1-495b-94fa-c89b76875705.2Ejpeg/1200x630/background-color/ffffff/quality/70/cr/wqkgS3dlcmsgLyBDQVBJVEFM/5-pistes-pour-bien-choisir-votre-espace-de-coworking-1358535.jpg"
    },
    "id": 53,
    "latitude": 48.86589280625469,
    "longitude": 2.354209955903232
  },
  {
    "NOM": "IBB",
    "ADRESSE": "4 Rue Eugêne Savoye",
    "CP": "25000",
    "VILLE": "Besançon",
    "WEB": "www.ibureaubisontin.com",
    "IMG": {
      "URL": "https://www.deskmag.com/images/articleimages/original/deskmag-coworking-6191.png"
    },
    "id": 54,
    "latitude": 47.2497473,
    "longitude": 6.0229057
  },
  {
    "NOM": "Ici Montreuil",
    "ADRESSE": "135 Boulevard Chanzy",
    "CP": "93100",
    "VILLE": "Montreuil",
    "WEB": "www.icimontreuil.com",
    "IMG": {
      "URL": "https://www.eu-startups.com/wp-content/uploads/2018/07/Coworking-Porto.png"
    },
    "id": 55,
    "latitude": 47.24985488295012,
    "longitude": 6.023048800036606
  },
  {
    "NOM": "Intencity",
    "ADRESSE": "31 Rue de Reuilly",
    "CP": "75012",
    "VILLE": "Paris",
    "WEB": "www.intencity.fr",
    "IMG": {
      "URL": "https://uploads.lebonbon.fr/source/2019/january/t59rj4f5gu_2_675.jpg"
    },
    "id": 56,
    "latitude": 48.847885423685554,
    "longitude": 2.386685798231513
  },
  {
    "NOM": "Intencity",
    "ADRESSE": "6 Rue d'Estienne d'Orves",
    "CP": "92110",
    "VILLE": "Clichy",
    "WEB": "www.intencity.fr",
    "IMG": {
      "URL": "https://cap.img.pmdstatic.net/fit/http.3A.2F.2Fprd2-bone-image.2Es3-website-eu-west-1.2Eamazonaws.2Ecom.2Fcap.2F2019.2F12.2F26.2F6bd56f1d-e7a1-495b-94fa-c89b76875705.2Ejpeg/1200x630/background-color/ffffff/quality/70/cr/wqkgS3dlcmsgLyBDQVBJVEFM/5-pistes-pour-bien-choisir-votre-espace-de-coworking-1358535.jpg"
    },
    "id": 57
  },
  {
    "NOM": "Iot Valley",
    "ADRESSE": "Rue Jean Rostand",
    "CP": "31670",
    "VILLE": "Labège",
    "WEB": "www.iot-valley.fr",
    "IMG": {
      "URL": "https://spaces-wp.imgix.net/2019/04/Spaces-hennessy-road-hong-kong-hong-kong-flexible-work-space.jpg?auto=compress,format&q=30&ar=2.46:1&&fit=crop&h=584"
    },
    "id": 58,
    "latitude": 43.5444251,
    "longitude": 1.5111106
  },
  {
    "NOM": "Kera Working",
    "ADRESSE": "Route de Puyloubier",
    "CP": "13530",
    "VILLE": "Trets",
    "WEB": "www.kera-working.com",
    "IMG": {
      "URL": "https://uploads.lebonbon.fr/source/2019/january/t59rj4f5gu_2_675.jpg"
    },
    "id": 59,
    "latitude": 43.4580196388098,
    "longitude": 5.6843453845947725
  },
  {
    "NOM": "Kiosk Office",
    "ADRESSE": "21b Avenue du Neuhof",
    "CP": "67000",
    "VILLE": "Strasbourg",
    "WEB": "www.starthop.eu",
    "IMG": {
      "URL": "https://cap.img.pmdstatic.net/fit/http.3A.2F.2Fprd2-bone-image.2Es3-website-eu-west-1.2Eamazonaws.2Ecom.2Fcap.2F2018.2F03.2F05.2F4ac193e3-a981-400b-a6f4-9d8bc9de39f2.2Ejpeg/1200x630/background-color/ffffff/quality/70/cr/wqkgR2V0dHkgSW1hZ2VzIC8gQ0FQSVRBTA%3D%3D/teletravail-coworking-lentreprise-se-dematerialise-1275457.jpg"
    },
    "id": 60,
    "latitude": 48.5562726031227,
    "longitude": 7.766778698223314
  },
  {
    "NOM": "Kitchen Cannes",
    "ADRESSE": "6 Rue Jean Daumas",
    "CP": "06400",
    "VILLE": "Cannes",
    "WEB": "www.kitchen-cannes.com",
    "IMG": {
      "URL": "https://spaces-wp.imgix.net/2019/04/Spaces-hennessy-road-hong-kong-hong-kong-flexible-work-space.jpg?auto=compress,format&q=30&ar=2.46:1&&fit=crop&h=584"
    },
    "id": 61,
    "latitude": 43.5526208,
    "longitude": 7.0253622
  },
  {
    "NOM": "Kwerk",
    "ADRESSE": "50 Route de la Reine",
    "CP": "92100",
    "VILLE": "Boulogne-Billancourt",
    "WEB": "www.kwerk.fr",
    "IMG": {
      "URL": "https://spaces-wp.imgix.net/2019/04/Spaces-hennessy-road-hong-kong-hong-kong-flexible-work-space.jpg?auto=compress,format&q=30&ar=2.46:1&&fit=crop&h=584"
    },
    "id": 62,
    "latitude": 48.839555145999505,
    "longitude": 2.2448083559025194
  },
  {
    "NOM": "La Boussol",
    "ADRESSE": "7 Rue de Vendée",
    "CP": "29200",
    "VILLE": "Brest",
    "WEB": "www.laboussol.fr",
    "IMG": {
      "URL": "https://cap.img.pmdstatic.net/fit/http.3A.2F.2Fprd2-bone-image.2Es3-website-eu-west-1.2Eamazonaws.2Ecom.2Fcap.2F2018.2F03.2F05.2F4ac193e3-a981-400b-a6f4-9d8bc9de39f2.2Ejpeg/1200x630/background-color/ffffff/quality/70/cr/wqkgR2V0dHkgSW1hZ2VzIC8gQ0FQSVRBTA%3D%3D/teletravail-coworking-lentreprise-se-dematerialise-1275457.jpg"
    },
    "id": 63,
    "latitude": 48.40430072081017,
    "longitude": -4.512659659452066
  },
  {
    "NOM": "La Cagouille",
    "ADRESSE": "11 Rue de l'Aunis",
    "CP": "17290",
    "VILLE": "Aigrefeuille-d'Aunis",
    "WEB": "www.coworking-aigrefeuille.com",
    "IMG": {
      "URL": "https://cap.img.pmdstatic.net/fit/http.3A.2F.2Fprd2-bone-image.2Es3-website-eu-west-1.2Eamazonaws.2Ecom.2Fcap.2F2019.2F12.2F26.2F6bd56f1d-e7a1-495b-94fa-c89b76875705.2Ejpeg/1200x630/background-color/ffffff/quality/70/cr/wqkgS3dlcmsgLyBDQVBJVEFM/5-pistes-pour-bien-choisir-votre-espace-de-coworking-1358535.jpg"
    },
    "id": 64,
    "latitude": 46.11551253730728,
    "longitude": -0.9350716306788186
  },
  {
    "NOM": "La Cambuzz",
    "ADRESSE": "Rue Théodore Monod",
    "CP": "35400",
    "VILLE": "Saint-Malo",
    "WEB": "www.digital-saint-malo.com",
    "IMG": {
      "URL": "https://www.coworkingnantes.com/wp-content/uploads/2018/02/vue-RDC-960x560.jpg"
    },
    "id": 65,
    "latitude": 48.64685538119771,
    "longitude": -2.0068180864316827
  },
  {
    "NOM": "La Cantine",
    "ADRESSE": "20 Rue Duquesne",
    "CP": "29200",
    "VILLE": "Brest",
    "WEB": "www.lacantine-brest.net",
    "IMG": {
      "URL": "https://www.deskmag.com/images/articleimages/original/deskmag-coworking-6191.png"
    },
    "id": 66,
    "latitude": 48.39210776178456,
    "longitude": -4.488204430616831
  },
  {
    "NOM": "La Cantine",
    "ADRESSE": "Place Georges Pompidou",
    "CP": "83000",
    "VILLE": "Toulon",
    "WEB": "www.lacantine-toulon.org",
    "IMG": {
      "URL": "https://www.coworkingnantes.com/wp-content/uploads/2018/02/vue-RDC-960x560.jpg"
    },
    "id": 67,
    "latitude": 43.12038224629798,
    "longitude": 5.937748725065825
  },
  {
    "NOM": "La Cantine Numérique",
    "ADRESSE": "11 Impasse Juton",
    "CP": "44000",
    "VILLE": "Nantes",
    "WEB": "www.atlantic2.org",
    "IMG": {
      "URL": "https://cap.img.pmdstatic.net/fit/http.3A.2F.2Fprd2-bone-image.2Es3-website-eu-west-1.2Eamazonaws.2Ecom.2Fcap.2F2018.2F03.2F05.2F4ac193e3-a981-400b-a6f4-9d8bc9de39f2.2Ejpeg/1200x630/background-color/ffffff/quality/70/cr/wqkgR2V0dHkgSW1hZ2VzIC8gQ0FQSVRBTA%3D%3D/teletravail-coworking-lentreprise-se-dematerialise-1275457.jpg"
    },
    "id": 68,
    "latitude": 47.207296671285995,
    "longitude": -1.5587189424218204
  },
  {
    "NOM": "La Capsule",
    "ADRESSE": "5 Rue des Marmouzets",
    "CP": "51100",
    "VILLE": "Reims",
    "WEB": "www.reimscoworking.fr",
    "IMG": {
      "URL": "https://www.coworkingnantes.com/wp-content/uploads/2018/02/vue-RDC-960x560.jpg"
    },
    "id": 69,
    "latitude": 49.25603822692733,
    "longitude": 4.036951869407413
  },
  {
    "NOM": "La Chapelle Coworking",
    "ADRESSE": "134 Rue Paul Bellamy",
    "CP": "44000",
    "VILLE": "Nantes",
    "WEB": "www.la-chapelle-coworking.fr",
    "IMG": {
      "URL": "https://www.eu-startups.com/wp-content/uploads/2018/07/Coworking-Porto.png"
    },
    "id": 70,
    "latitude": 47.228660721365074,
    "longitude": -1.5612261729776316
  },
  {
    "NOM": "La Coloc",
    "ADRESSE": "3 Rue Vincent Auriol",
    "CP": "80000",
    "VILLE": "Amiens",
    "WEB": "www.coworking-amiens.fr",
    "IMG": {
      "URL": "https://spaces-wp.imgix.net/2019/04/Spaces-hennessy-road-hong-kong-hong-kong-flexible-work-space.jpg?auto=compress,format&q=30&ar=2.46:1&&fit=crop&h=584"
    },
    "id": 71,
    "latitude": 49.88996221955405,
    "longitude": 2.3033508847678474
  },
  {
    "NOM": "La Compagnie",
    "ADRESSE": "15 Avenue Henri Becquerel",
    "CP": "51000",
    "VILLE": "Châlons-en-Champagne",
    "WEB": "www.chalonscoworking.fr",
    "IMG": {
      "URL": "https://www.eu-startups.com/wp-content/uploads/2018/07/Coworking-Porto.png"
    },
    "id": 72,
    "latitude": 48.96632539427678,
    "longitude": 4.347846641112269
  },
  {
    "NOM": "La Cordée",
    "ADRESSE": "61 Cours de la Liberté",
    "CP": "69003",
    "VILLE": "Lyon",
    "WEB": "www.la-cordee.netla-cordee-liberte-guillotiere",
    "IMG": {
      "URL": "https://www.coworkingnantes.com/wp-content/uploads/2018/02/vue-RDC-960x560.jpg"
    },
    "id": 73,
    "latitude": 45.7573659,
    "longitude": 4.8428665
  },
  {
    "NOM": "La Cordée",
    "ADRESSE": "4 Quai Jean Moulin",
    "CP": "69001",
    "VILLE": "Lyon",
    "WEB": "www.la-cordee.netla-cordee-opera",
    "IMG": {
      "URL": "https://cap.img.pmdstatic.net/fit/http.3A.2F.2Fprd2-bone-image.2Es3-website-eu-west-1.2Eamazonaws.2Ecom.2Fcap.2F2019.2F12.2F26.2F6bd56f1d-e7a1-495b-94fa-c89b76875705.2Ejpeg/1200x630/background-color/ffffff/quality/70/cr/wqkgS3dlcmsgLyBDQVBJVEFM/5-pistes-pour-bien-choisir-votre-espace-de-coworking-1358535.jpg"
    },
    "id": 74,
    "latitude": 45.7672887,
    "longitude": 4.8377882
  },
  {
    "NOM": "La Coroutine",
    "ADRESSE": "8 Rue Molière",
    "CP": "59000",
    "VILLE": "Lille",
    "WEB": "www.lacoroutine.org",
    "IMG": {
      "URL": "https://cap.img.pmdstatic.net/fit/http.3A.2F.2Fprd2-bone-image.2Es3-website-eu-west-1.2Eamazonaws.2Ecom.2Fcap.2F2019.2F12.2F26.2F6bd56f1d-e7a1-495b-94fa-c89b76875705.2Ejpeg/1200x630/background-color/ffffff/quality/70/cr/wqkgS3dlcmsgLyBDQVBJVEFM/5-pistes-pour-bien-choisir-votre-espace-de-coworking-1358535.jpg"
    },
    "id": 75,
    "latitude": 50.62940821001957,
    "longitude": 3.06962368478912
  },
  {
    "NOM": "La Fabrique",
    "ADRESSE": "10 Rue Chaptal",
    "CP": "34000",
    "VILLE": "Montpellier",
    "WEB": "www.lafabriquecoworking.net",
    "IMG": {
      "URL": "https://www.coworkingnantes.com/wp-content/uploads/2018/02/vue-RDC-960x560.jpg"
    },
    "id": 76,
    "latitude": 43.6060236,
    "longitude": 3.8715978
  },
  {
    "NOM": "La Factory",
    "ADRESSE": "156 Rue des Voies du Bois",
    "CP": "92700",
    "VILLE": "Colombes",
    "WEB": "www.factorycoworking.net",
    "IMG": {
      "URL": "https://www.coworkingnantes.com/wp-content/uploads/2018/02/vue-RDC-960x560.jpg"
    },
    "id": 77,
    "latitude": 48.915288498184076,
    "longitude": 2.246554128918244
  },
  {
    "NOM": "La Factory",
    "ADRESSE": "144 Rue du Chemin Vert",
    "CP": "75011",
    "VILLE": "Paris",
    "WEB": "www.factorycoworking.net",
    "IMG": {
      "URL": "https://uploads.lebonbon.fr/source/2019/january/t59rj4f5gu_2_675.jpg"
    },
    "id": 78,
    "latitude": 48.862659974902705,
    "longitude": 2.386415198231924
  },
  {
    "NOM": "La Forge",
    "ADRESSE": "12 Rue Paul Doumer",
    "CP": "15000",
    "VILLE": "Aurillac",
    "WEB": "www.coworking-aurillac.fr",
    "IMG": {
      "URL": "https://uploads.lebonbon.fr/source/2019/january/t59rj4f5gu_2_675.jpg"
    },
    "id": 79,
    "latitude": 44.9269813,
    "longitude": 2.4451935
  },
  {
    "NOM": "La Grappe",
    "ADRESSE": "27 Rue Grosse Horloge",
    "CP": "17400",
    "VILLE": "Saint-Jean-d'Angély",
    "WEB": "www.espace-lagrappe.com",
    "IMG": {
      "URL": "https://cap.img.pmdstatic.net/fit/http.3A.2F.2Fprd2-bone-image.2Es3-website-eu-west-1.2Eamazonaws.2Ecom.2Fcap.2F2018.2F03.2F05.2F4ac193e3-a981-400b-a6f4-9d8bc9de39f2.2Ejpeg/1200x630/background-color/ffffff/quality/70/cr/wqkgR2V0dHkgSW1hZ2VzIC8gQ0FQSVRBTA%3D%3D/teletravail-coworking-lentreprise-se-dematerialise-1275457.jpg"
    },
    "id": 80,
    "latitude": 45.9435225,
    "longitude": -0.5204183
  },
  {
    "NOM": "La Grappe by Granilia",
    "ADRESSE": "Avenue de l'Europe",
    "CP": "81600",
    "VILLE": "Gaillac",
    "WEB": "www.lagrappe-granilia.fr",
    "IMG": {
      "URL": "https://www.coworkingnantes.com/wp-content/uploads/2018/02/vue-RDC-960x560.jpg"
    },
    "id": 81,
    "latitude": 43.9015852,
    "longitude": 1.8767894
  },
  {
    "NOM": "La Kabane",
    "ADRESSE": "147 Rue de Limoges",
    "CP": "16000",
    "VILLE": "Angoulême",
    "WEB": "www.la-kabane.fr",
    "IMG": {
      "URL": "https://spaces-wp.imgix.net/2019/04/Spaces-hennessy-road-hong-kong-hong-kong-flexible-work-space.jpg?auto=compress,format&q=30&ar=2.46:1&&fit=crop&h=584"
    },
    "id": 82,
    "latitude": 45.6589754,
    "longitude": 0.1752155
  },
  {
    "NOM": "La Loco Numérique",
    "ADRESSE": "123 Boulevard Louis Blanc",
    "CP": "85000",
    "VILLE": "La Roche-sur-Yon",
    "WEB": "www.loco-numerique.fr",
    "id": 83,
    "latitude": 46.6741615,
    "longitude": -1.4352446
  },
  {
    "NOM": "La Machinerie",
    "ADRESSE": "70 Rue des Jacobins",
    "CP": "80000",
    "VILLE": "Amiens",
    "WEB": "www.lamachinerie.org",
    "IMG": {
      "URL": "https://www.deskmag.com/images/articleimages/original/deskmag-coworking-6191.png"
    },
    "id": 84,
    "latitude": 49.890157445984514,
    "longitude": 2.3014864270966475
  },
  {
    "NOM": "La Maison Bleue",
    "ADRESSE": "83-85 Rue Cauchoise",
    "CP": "76000",
    "VILLE": "Rouen",
    "WEB": "www.lamaisonbleue.mobi",
    "IMG": {
      "URL": "https://www.coworkingnantes.com/wp-content/uploads/2018/02/vue-RDC-960x560.jpg"
    },
    "id": 85,
    "latitude": 49.4450190168234,
    "longitude": 1.0866681000976015
  },
  {
    "NOM": "La Maison du Coworking",
    "ADRESSE": "9 Allée de la Laiterie",
    "CP": "59493",
    "VILLE": "Villeneuve-d'Ascq",
    "WEB": "www.lamaisonducoworking.fr",
    "IMG": {
      "URL": "https://www.deskmag.com/images/articleimages/original/deskmag-coworking-6191.png"
    },
    "id": 86,
    "latitude": 50.60848113611927,
    "longitude": 3.1665849982817114
  },
  {
    "NOM": "La Manufacture",
    "ADRESSE": "21 Avenue Gabriel Chaigne",
    "CP": "33190",
    "VILLE": "La Réole",
    "WEB": "www.manufacturelareole.fr",
    "IMG": {
      "URL": "https://paris-jetequitte.com/wp-content/uploads/2018/09/espace-coworking-3.jpg"
    },
    "id": 87,
    "latitude": 44.58110695490368,
    "longitude": -0.03166494421225341
  },
  {
    "NOM": "La Passerelle",
    "ADRESSE": "40A Boulevard Limbert",
    "CP": "84000",
    "VILLE": "Avignon",
    "WEB": "www.lapasserelle.co",
    "IMG": {
      "URL": "https://uploads.lebonbon.fr/source/2019/january/t59rj4f5gu_2_675.jpg"
    },
    "id": 88,
    "latitude": 43.94962591237817,
    "longitude": 4.820055753922349
  },
  {
    "NOM": "La Plage",
    "ADRESSE": "15 Route du Rhin",
    "CP": "67100",
    "VILLE": "Strasbourg",
    "WEB": "www.laplagedigitale.eu",
    "IMG": {
      "URL": "https://spaces-wp.imgix.net/2019/04/Spaces-hennessy-road-hong-kong-hong-kong-flexible-work-space.jpg?auto=compress,format&q=30&ar=2.46:1&&fit=crop&h=584"
    },
    "id": 89,
    "latitude": 48.5728985587778,
    "longitude": 7.792916098223854
  },
  {
    "NOM": "La Ruche",
    "ADRESSE": "66 Rue Abbé de l'épée",
    "CP": "33000",
    "VILLE": "Bordeaux",
    "WEB": "www.la-ruche.net",
    "IMG": {
      "URL": "https://www.eu-startups.com/wp-content/uploads/2018/07/Coworking-Porto.png"
    },
    "id": 90,
    "latitude": 44.8421683,
    "longitude": -0.5828134
  },
  {
    "NOM": "La Ruche Coworking",
    "ADRESSE": "28 Boulevard National",
    "CP": "13001",
    "VILLE": "Marseille",
    "WEB": "www.la-ruche-marseille.org",
    "IMG": {
      "URL": "https://paris-jetequitte.com/wp-content/uploads/2018/09/espace-coworking-3.jpg"
    },
    "id": 91,
    "latitude": 43.30300984248524,
    "longitude": 5.386667798084032
  },
  {
    "NOM": "La Ruche Numérique",
    "ADRESSE": "19 Boulevard Oyon",
    "CP": "72100",
    "VILLE": "Le Mans",
    "WEB": "www.laruchenumerique.com",
    "IMG": {
      "URL": "https://cap.img.pmdstatic.net/fit/http.3A.2F.2Fprd2-bone-image.2Es3-website-eu-west-1.2Eamazonaws.2Ecom.2Fcap.2F2019.2F12.2F26.2F6bd56f1d-e7a1-495b-94fa-c89b76875705.2Ejpeg/1200x630/background-color/ffffff/quality/70/cr/wqkgS3dlcmsgLyBDQVBJVEFM/5-pistes-pour-bien-choisir-votre-espace-de-coworking-1358535.jpg"
    },
    "id": 92,
    "latitude": 47.995186692977434,
    "longitude": 0.18835764238580172
  },
  {
    "NOM": "La Serre",
    "ADRESSE": "27 Bis Allée Maurice Sarraut",
    "CP": "31300",
    "VILLE": "Toulouse",
    "WEB": "www.la-serre.org",
    "IMG": {
      "URL": "https://www.coworkingnantes.com/wp-content/uploads/2018/02/vue-RDC-960x560.jpg"
    },
    "id": 93,
    "latitude": 43.59436850591898,
    "longitude": 1.4215250134337807
  },
  {
    "NOM": "La Tribu Coworking",
    "ADRESSE": "10 Rue du Docteur Leroy",
    "CP": "72100",
    "VILLE": "Le Mans",
    "WEB": "www.latribucw.fr",
    "IMG": {
      "URL": "https://www.coworkingnantes.com/wp-content/uploads/2018/02/vue-RDC-960x560.jpg"
    },
    "id": 94,
    "latitude": 48.003220050302204,
    "longitude": 0.1958271405368013
  },
  {
    "NOM": "L'Annexe",
    "ADRESSE": "20 Rue d'Isly",
    "CP": "35000",
    "VILLE": "Rennes",
    "WEB": "www.lacantine-rennes.net",
    "IMG": {
      "URL": "https://paris-jetequitte.com/wp-content/uploads/2018/09/espace-coworking-3.jpg"
    },
    "id": 95,
    "latitude": 48.105444,
    "longitude": -1.6782101
  },
  {
    "NOM": "L'Archipel",
    "ADRESSE": "31 Rue Chevalier Paul",
    "CP": "83000",
    "VILLE": "Toulon",
    "WEB": "www.archipel-toulon.fr",
    "IMG": {
      "URL": "https://www.deskmag.com/images/articleimages/original/deskmag-coworking-6191.png"
    },
    "id": 97,
    "latitude": 43.12197335394063,
    "longitude": 5.930558740408279
  },
  {
    "NOM": "L'Asile",
    "ADRESSE": "26 Rue Rolland",
    "CP": "33000",
    "VILLE": "Bordeaux",
    "WEB": "www.lasile-bordeaux.fr",
    "IMG": {
      "URL": "https://paris-jetequitte.com/wp-content/uploads/2018/09/espace-coworking-3.jpg"
    },
    "id": 98,
    "latitude": 44.8426347,
    "longitude": -0.5811413
  },
  {
    "NOM": "L'Atelier",
    "ADRESSE": "3 Place du Marché",
    "CP": "26150",
    "VILLE": "Die",
    "WEB": "www.latelier.in",
    "IMG": {
      "URL": "https://www.deskmag.com/images/articleimages/original/deskmag-coworking-6191.png"
    },
    "id": 99,
    "latitude": 44.753292517017506,
    "longitude": 5.37030942695659
  },
  {
    "NOM": "L'Atelier du 9",
    "ADRESSE": "9 Rue du Moulin l'Abbé",
    "CP": "62280",
    "VILLE": "Saint-Martin-Boulogne",
    "WEB": "www.latelierdu9.fr",
    "IMG": {
      "URL": "https://cap.img.pmdstatic.net/fit/http.3A.2F.2Fprd2-bone-image.2Es3-website-eu-west-1.2Eamazonaws.2Ecom.2Fcap.2F2019.2F12.2F26.2F6bd56f1d-e7a1-495b-94fa-c89b76875705.2Ejpeg/1200x630/background-color/ffffff/quality/70/cr/wqkgS3dlcmsgLyBDQVBJVEFM/5-pistes-pour-bien-choisir-votre-espace-de-coworking-1358535.jpg"
    },
    "id": 100,
    "latitude": 50.729062604258985,
    "longitude": 1.6804764694495833
  },
  {
    "NOM": "Lawomatic",
    "ADRESSE": "20 Rue Jean Moinon",
    "CP": "75010",
    "VILLE": "Paris",
    "WEB": "www.lawomatic.fr",
    "IMG": {
      "URL": "https://www.eu-startups.com/wp-content/uploads/2018/07/Coworking-Porto.png"
    },
    "id": 101,
    "latitude": 48.874380461276075,
    "longitude": 2.3716792135746902
  },
  {
    "NOM": "Lawomatic",
    "ADRESSE": "26 Rue du Chalet",
    "CP": "75010",
    "VILLE": "Paris",
    "WEB": "www.lawomatic.fr",
    "IMG": {
      "URL": "https://spaces-wp.imgix.net/2019/04/Spaces-hennessy-road-hong-kong-hong-kong-flexible-work-space.jpg?auto=compress,format&q=30&ar=2.46:1&&fit=crop&h=584"
    },
    "id": 102,
    "latitude": 48.87428515295139,
    "longitude": 2.372875440561064
  },
  {
    "NOM": "Le 10h10",
    "ADRESSE": "19 Rue de Cléry",
    "CP": "75002",
    "VILLE": "Paris",
    "WEB": "www.le10h10.com",
    "IMG": {
      "URL": "https://www.coworkingnantes.com/wp-content/uploads/2018/02/vue-RDC-960x560.jpg"
    },
    "id": 103,
    "latitude": 48.86820278400409,
    "longitude": 2.3460417270677083
  },
  {
    "NOM": "Le 17 bis",
    "ADRESSE": "17 Boulevard Pasteur",
    "CP": "75015",
    "VILLE": "Paris",
    "WEB": "www.le17bis.com",
    "IMG": {
      "URL": "https://paris-jetequitte.com/wp-content/uploads/2018/09/espace-coworking-3.jpg"
    },
    "id": 104,
    "latitude": 48.84430866881391,
    "longitude": 2.3120028233685903
  },
  {
    "NOM": "Le 50",
    "ADRESSE": "50 Avenue Léon Crète",
    "CP": "78490",
    "VILLE": "Méré",
    "WEB": "www.le-50.fr",
    "IMG": {
      "URL": "https://www.eu-startups.com/wp-content/uploads/2018/07/Coworking-Porto.png"
    },
    "id": 105,
    "latitude": 48.79287387497591,
    "longitude": 1.8140718540519598
  },
  {
    "NOM": "Le Capitole",
    "ADRESSE": "17 Avenue Albert Rouvière",
    "CP": "81200",
    "VILLE": "Mazamet",
    "WEB": "www.lecapitole-entreprises.fr",
    "IMG": {
      "URL": "https://cap.img.pmdstatic.net/fit/http.3A.2F.2Fprd2-bone-image.2Es3-website-eu-west-1.2Eamazonaws.2Ecom.2Fcap.2F2018.2F03.2F05.2F4ac193e3-a981-400b-a6f4-9d8bc9de39f2.2Ejpeg/1200x630/background-color/ffffff/quality/70/cr/wqkgR2V0dHkgSW1hZ2VzIC8gQ0FQSVRBTA%3D%3D/teletravail-coworking-lentreprise-se-dematerialise-1275457.jpg"
    },
    "id": 106,
    "latitude": 43.49530519074575,
    "longitude": 2.3746627269244702
  },
  {
    "NOM": "Le Cl'hub",
    "ADRESSE": "23 Boulevard du Général Leclerc",
    "CP": "59100",
    "VILLE": "Roubaix",
    "WEB": "www.leclhub.fr",
    "IMG": {
      "URL": "https://uploads.lebonbon.fr/source/2019/january/t59rj4f5gu_2_675.jpg"
    },
    "id": 107,
    "latitude": 50.68860573018969,
    "longitude": 3.175840227119663
  },
  {
    "NOM": "Le Container",
    "ADRESSE": "Quai Frissard",
    "CP": "76600",
    "VILLE": "Le Havre",
    "WEB": "www.lecontainer.co",
    "IMG": {
      "URL": "https://www.deskmag.com/images/articleimages/original/deskmag-coworking-6191.png"
    },
    "id": 108,
    "latitude": 49.49032677886012,
    "longitude": 0.12657325592087285
  },
  {
    "NOM": "Le Gymnase",
    "ADRESSE": "1 Passage Saint-Bernard",
    "CP": "75011",
    "VILLE": "Paris",
    "WEB": "www.legymnase.com",
    "IMG": {
      "URL": "https://www.eu-startups.com/wp-content/uploads/2018/07/Coworking-Porto.png"
    },
    "id": 109,
    "latitude": 48.85133785109138,
    "longitude": 2.3797346982316103
  },
  {
    "NOM": "Le Laptop",
    "ADRESSE": "6 Rue Arthur Rozier",
    "CP": "75019",
    "VILLE": "Paris",
    "WEB": "www.lelaptop.com",
    "IMG": {
      "URL": "https://www.coworkingnantes.com/wp-content/uploads/2018/02/vue-RDC-960x560.jpg"
    },
    "id": 110,
    "latitude": 48.877509836774635,
    "longitude": 2.3907916693967595
  },
  {
    "NOM": "Le Numéro Cinq",
    "ADRESSE": "5 Rue de la Rousselle",
    "CP": "33000",
    "VILLE": "Bordeaux",
    "WEB": "www.bordeauxcoworking.com",
    "IMG": {
      "URL": "https://www.coworkingnantes.com/wp-content/uploads/2018/02/vue-RDC-960x560.jpg"
    },
    "id": 112,
    "latitude": 44.8375504,
    "longitude": -0.5693933
  },
  {
    "NOM": "Le Patio",
    "ADRESSE": "212 Avenue de Tivoli",
    "CP": "33110",
    "VILLE": "Le Bouscat",
    "WEB": "www.lepatiocoworking.fr",
    "IMG": {
      "URL": "https://uploads.lebonbon.fr/source/2019/january/t59rj4f5gu_2_675.jpg"
    },
    "id": 114,
    "latitude": 44.86718465926287,
    "longitude": -0.5966191711912
  },
  {
    "NOM": "Le Petit Musc",
    "ADRESSE": "28 Rue du Petit Musc",
    "CP": "75004",
    "VILLE": "Paris",
    "WEB": "www.lepetitmusc.fr",
    "IMG": {
      "URL": "https://www.deskmag.com/images/articleimages/original/deskmag-coworking-6191.png"
    },
    "id": 115,
    "latitude": 48.853032128930444,
    "longitude": 2.3646798270672877
  },
  {
    "NOM": "Le Phare",
    "ADRESSE": "50 Boulevard Gambetta",
    "CP": "87000",
    "VILLE": "Limoges",
    "WEB": "www.lephare-limoges.com",
    "IMG": {
      "URL": "https://cap.img.pmdstatic.net/fit/http.3A.2F.2Fprd2-bone-image.2Es3-website-eu-west-1.2Eamazonaws.2Ecom.2Fcap.2F2019.2F12.2F26.2F6bd56f1d-e7a1-495b-94fa-c89b76875705.2Ejpeg/1200x630/background-color/ffffff/quality/70/cr/wqkgS3dlcmsgLyBDQVBJVEFM/5-pistes-pour-bien-choisir-votre-espace-de-coworking-1358535.jpg"
    },
    "id": 116,
    "latitude": 45.82855861825077,
    "longitude": 1.2566468423271966
  },
  {
    "NOM": "Le Préau",
    "ADRESSE": "Le Village",
    "CP": "07200",
    "VILLE": "Saint-étienne-de-Boulogne",
    "WEB": "www.lepreau.org",
    "IMG": {
      "URL": "https://cap.img.pmdstatic.net/fit/http.3A.2F.2Fprd2-bone-image.2Es3-website-eu-west-1.2Eamazonaws.2Ecom.2Fcap.2F2018.2F03.2F05.2F4ac193e3-a981-400b-a6f4-9d8bc9de39f2.2Ejpeg/1200x630/background-color/ffffff/quality/70/cr/wqkgR2V0dHkgSW1hZ2VzIC8gQ0FQSVRBTA%3D%3D/teletravail-coworking-lentreprise-se-dematerialise-1275457.jpg"
    },
    "id": 117,
    "latitude": 44.70168094187178,
    "longitude": 4.458736120636562
  },
  {
    "NOM": "Le P'tit Bureau",
    "ADRESSE": "4 Rue Claudius Perillat",
    "CP": "73200",
    "VILLE": "Albertville",
    "WEB": "www.leptitbureau-cowork.com",
    "IMG": {
      "URL": "https://spaces-wp.imgix.net/2019/04/Spaces-hennessy-road-hong-kong-hong-kong-flexible-work-space.jpg?auto=compress,format&q=30&ar=2.46:1&&fit=crop&h=584"
    },
    "id": 118,
    "latitude": 45.67589672183581,
    "longitude": 6.391777071158767
  },
  {
    "NOM": "Le QG",
    "ADRESSE": "4 Rue des Casernes",
    "CP": "01000",
    "VILLE": "Bourg-en-Bresse",
    "WEB": "www.le-qg.org",
    "IMG": {
      "URL": "https://www.coworkingnantes.com/wp-content/uploads/2018/02/vue-RDC-960x560.jpg"
    },
    "id": 119,
    "latitude": 45.485933788211156,
    "longitude": 6.5337511693045585
  },
  {
    "NOM": "Le Troquet Numérique",
    "ADRESSE": "Place Charlie Chaplin",
    "CP": "38300",
    "VILLE": "Bourgoin-Jallieu",
    "WEB": "www.troquet-numerique.org",
    "IMG": {
      "URL": "https://uploads.lebonbon.fr/source/2019/january/t59rj4f5gu_2_675.jpg"
    },
    "id": 120,
    "latitude": 45.58902726431451,
    "longitude": 5.277539313485307
  },
  {
    "NOM": "Le Vaisseau",
    "ADRESSE": "17 Rue Jean Perrin",
    "CP": "17000",
    "VILLE": "La Rochelle",
    "WEB": "www.levaisseau.pro",
    "IMG": {
      "URL": "https://www.coworkingnantes.com/wp-content/uploads/2018/02/vue-RDC-960x560.jpg"
    },
    "id": 121,
    "latitude": 46.14105592089381,
    "longitude": -1.157972128828899
  },
  {
    "NOM": "Les 6 degrés",
    "ADRESSE": "8 Rue André Chaude",
    "CP": "06400",
    "VILLE": "Cannes",
    "WEB": "www.les6degres.com",
    "IMG": {
      "URL": "https://paris-jetequitte.com/wp-content/uploads/2018/09/espace-coworking-3.jpg"
    },
    "id": 122,
    "latitude": 43.555794859118045,
    "longitude": 7.017786711583577
  },
  {
    "NOM": "L'Estrade",
    "ADRESSE": "39 Rue Jules Noriac",
    "CP": "87000",
    "VILLE": "Limoges",
    "WEB": "www.estrade87.fr",
    "IMG": {
      "URL": "https://www.deskmag.com/images/articleimages/original/deskmag-coworking-6191.png"
    },
    "id": 125,
    "latitude": 45.83543652947761,
    "longitude": 1.2571090558205587
  },
  {
    "NOM": "L'Usine",
    "ADRESSE": "6 Rue de l'étang",
    "CP": "90000",
    "VILLE": "Belfort",
    "WEB": "www.lusineabelfort.fr",
    "IMG": {
      "URL": "https://www.deskmag.com/images/articleimages/original/deskmag-coworking-6191.png"
    },
    "id": 126,
    "latitude": 47.64389356226997,
    "longitude": 6.844117640526895
  },
  {
    "NOM": "Melchior",
    "ADRESSE": "275 Rue de l'église",
    "CP": "69390",
    "VILLE": "Charly",
    "WEB": "www.clubmelchior.fr",
    "IMG": {
      "URL": "https://paris-jetequitte.com/wp-content/uploads/2018/09/espace-coworking-3.jpg"
    },
    "id": 127,
    "latitude": 45.64701678673495,
    "longitude": 4.796025453966358
  },
  {
    "NOM": "Mix Coworking",
    "ADRESSE": "6 Avenue Joannes Hubert",
    "CP": "69160",
    "VILLE": "Tassin-la-Demi-Lune",
    "WEB": "www.mix-coworking.fr",
    "IMG": {
      "URL": "https://cap.img.pmdstatic.net/fit/http.3A.2F.2Fprd2-bone-image.2Es3-website-eu-west-1.2Eamazonaws.2Ecom.2Fcap.2F2018.2F03.2F05.2F4ac193e3-a981-400b-a6f4-9d8bc9de39f2.2Ejpeg/1200x630/background-color/ffffff/quality/70/cr/wqkgR2V0dHkgSW1hZ2VzIC8gQ0FQSVRBTA%3D%3D/teletravail-coworking-lentreprise-se-dematerialise-1275457.jpg"
    },
    "id": 128,
    "latitude": 45.764660831438675,
    "longitude": 4.780725942325495
  },
  {
    "NOM": "Mutinerie 14",
    "ADRESSE": "17 Rue Ledion",
    "CP": "75014",
    "VILLE": "Paris",
    "WEB": "www.mutinerie.org",
    "IMG": {
      "URL": "https://spaces-wp.imgix.net/2019/04/Spaces-hennessy-road-hong-kong-hong-kong-flexible-work-space.jpg?auto=compress,format&q=30&ar=2.46:1&&fit=crop&h=584"
    },
    "id": 129,
    "latitude": 48.82734176812501,
    "longitude": 2.3163247135733838
  },
  {
    "NOM": "MyCowork",
    "ADRESSE": "54 Rue Greneta",
    "CP": "75002",
    "VILLE": "Paris",
    "WEB": "www.mycowork.fr",
    "IMG": {
      "URL": "https://uploads.lebonbon.fr/source/2019/january/t59rj4f5gu_2_675.jpg"
    },
    "id": 130,
    "latitude": 48.86569486051397,
    "longitude": 2.348001940560827
  },
  {
    "NOM": "NetCoworking",
    "ADRESSE": "11 Rue de Magdebourg",
    "CP": "75116",
    "VILLE": "Paris",
    "WEB": "www.netcoworking.com",
    "IMG": {
      "URL": "https://cap.img.pmdstatic.net/fit/http.3A.2F.2Fprd2-bone-image.2Es3-website-eu-west-1.2Eamazonaws.2Ecom.2Fcap.2F2018.2F03.2F05.2F4ac193e3-a981-400b-a6f4-9d8bc9de39f2.2Ejpeg/1200x630/background-color/ffffff/quality/70/cr/wqkgR2V0dHkgSW1hZ2VzIC8gQ0FQSVRBTA%3D%3D/teletravail-coworking-lentreprise-se-dematerialise-1275457.jpg"
    },
    "id": 131,
    "latitude": 48.86475379929253,
    "longitude": 2.2892284540539656
  },
  {
    "NOM": "Now Coworking",
    "ADRESSE": "53 Boulevard des Belges",
    "CP": "76000",
    "VILLE": "Rouen",
    "WEB": "www.now-coworking.com",
    "IMG": {
      "URL": "https://paris-jetequitte.com/wp-content/uploads/2018/09/espace-coworking-3.jpg"
    },
    "id": 132,
    "latitude": 49.44415487073874,
    "longitude": 1.084870754070315
  },
  {
    "NOM": "Nuage Café",
    "ADRESSE": "14 Rue des Carmes",
    "CP": "75005",
    "VILLE": "Paris",
    "WEB": "www.nuagecafe.fr",
    "IMG": {
      "URL": "https://www.coworkingnantes.com/wp-content/uploads/2018/02/vue-RDC-960x560.jpg"
    },
    "id": 133,
    "latitude": 48.849418619578294,
    "longitude": 2.3473745559027774
  },
  {
    "NOM": "Panorama Coworking",
    "ADRESSE": "18 Rue des Pontonniers",
    "CP": "67000",
    "VILLE": "Strasbourg",
    "WEB": "www.panorama-coworking.fr",
    "IMG": {
      "URL": "https://cap.img.pmdstatic.net/fit/http.3A.2F.2Fprd2-bone-image.2Es3-website-eu-west-1.2Eamazonaws.2Ecom.2Fcap.2F2019.2F12.2F26.2F6bd56f1d-e7a1-495b-94fa-c89b76875705.2Ejpeg/1200x630/background-color/ffffff/quality/70/cr/wqkgS3dlcmsgLyBDQVBJVEFM/5-pistes-pour-bien-choisir-votre-espace-de-coworking-1358535.jpg"
    },
    "id": 134,
    "latitude": 48.58448662786326,
    "longitude": 7.757380342402171
  },
  {
    "NOM": "Plaine Co Working",
    "ADRESSE": "10 Rue Waldeck Rochet",
    "CP": "93300",
    "VILLE": "Aubervilliers",
    "WEB": "www.plainecoworking.org",
    "IMG": {
      "URL": "https://uploads.lebonbon.fr/source/2019/january/t59rj4f5gu_2_675.jpg"
    },
    "id": 135,
    "latitude": 48.909517258507655,
    "longitude": 2.3674718982332585
  },
  {
    "NOM": "Point Sud",
    "ADRESSE": "33 Rue Alphonse Karr",
    "CP": "83700",
    "VILLE": "Saint-Raphaël",
    "WEB": "www.point-sud.fr",
    "IMG": {
      "URL": "https://uploads.lebonbon.fr/source/2019/january/t59rj4f5gu_2_675.jpg"
    },
    "id": 136,
    "latitude": 43.424020523518095,
    "longitude": 6.767228128771914
  },
  {
    "NOM": "Polidesk",
    "ADRESSE": "Parc d'Activité de Doaren Molac",
    "CP": "56610",
    "VILLE": "Arradon",
    "WEB": "www.polidesk.com",
    "IMG": {
      "URL": "https://www.deskmag.com/images/articleimages/original/deskmag-coworking-6191.png"
    },
    "id": 137,
    "latitude": 47.64321963175268,
    "longitude": -2.8059277386096264
  },
  {
    "NOM": "Remix Coworking",
    "ADRESSE": "24 Cour des Petites Ecuries",
    "CP": "75010",
    "VILLE": "Paris",
    "WEB": "www.remixcoworking.com",
    "IMG": {
      "URL": "https://spaces-wp.imgix.net/2019/04/Spaces-hennessy-road-hong-kong-hong-kong-flexible-work-space.jpg?auto=compress,format&q=30&ar=2.46:1&&fit=crop&h=584"
    },
    "id": 138,
    "latitude": 48.87252820089455,
    "longitude": 2.3515721135746444
  },
  {
    "NOM": "Rooftop-Work",
    "ADRESSE": "47 Avenue de la Grande Armée",
    "CP": "75116",
    "VILLE": "Paris",
    "WEB": "www.rooftop-work.paris",
    "IMG": {
      "URL": "https://www.deskmag.com/images/articleimages/original/deskmag-coworking-6191.png"
    },
    "id": 139,
    "latitude": 48.87555104395838,
    "longitude": 2.2886893982322984
  },
  {
    "NOM": "Rueil 92 Coworking",
    "ADRESSE": "9-15 Avenue Paul Doumer",
    "CP": "92500",
    "VILLE": "Rueil-Malmaison",
    "WEB": "www.rueil-92-coworking.com",
    "IMG": {
      "URL": "https://www.deskmag.com/images/articleimages/original/deskmag-coworking-6191.png"
    },
    "id": 140,
    "latitude": 48.88388429272047,
    "longitude": 2.1916857424105483
  },
  {
    "NOM": "Safi CoWorking",
    "ADRESSE": "20 Rue des Poilus",
    "CP": "83470",
    "VILLE": "Saint-Maximin-la-Sainte-Baume",
    "WEB": "www.associationsafi.org",
    "IMG": {
      "URL": "https://cap.img.pmdstatic.net/fit/http.3A.2F.2Fprd2-bone-image.2Es3-website-eu-west-1.2Eamazonaws.2Ecom.2Fcap.2F2019.2F12.2F26.2F6bd56f1d-e7a1-495b-94fa-c89b76875705.2Ejpeg/1200x630/background-color/ffffff/quality/70/cr/wqkgS3dlcmsgLyBDQVBJVEFM/5-pistes-pour-bien-choisir-votre-espace-de-coworking-1358535.jpg"
    },
    "id": 141,
    "latitude": 43.45593290075007,
    "longitude": 5.862495555759107
  },
  {
    "NOM": "Sceaux Smart",
    "ADRESSE": "10 Rue Gaston Lévy",
    "CP": "92330",
    "VILLE": "Sceaux",
    "WEB": "www.sceauxsmart.fr",
    "IMG": {
      "URL": "https://spaces-wp.imgix.net/2019/04/Spaces-hennessy-road-hong-kong-hong-kong-flexible-work-space.jpg?auto=compress,format&q=30&ar=2.46:1&&fit=crop&h=584"
    },
    "id": 142,
    "latitude": 48.77806030039724,
    "longitude": 2.2869267289143975
  },
  {
    "NOM": "Sonuts",
    "ADRESSE": "2873 Route de Galice",
    "CP": "13090",
    "VILLE": "Aix-en-Provence",
    "WEB": "www.sonuts-coworking.com",
    "IMG": {
      "URL": "https://spaces-wp.imgix.net/2019/04/Spaces-hennessy-road-hong-kong-hong-kong-flexible-work-space.jpg?auto=compress,format&q=30&ar=2.46:1&&fit=crop&h=584"
    },
    "id": 144,
    "latitude": 43.52925743100758,
    "longitude": 5.40914547110334
  },
  {
    "NOM": "Split Coworking",
    "ADRESSE": "3 Rue Stephenson",
    "CP": "75018",
    "VILLE": "Paris",
    "WEB": "www.split-coworking.fr",
    "IMG": {
      "URL": "https://www.coworkingnantes.com/wp-content/uploads/2018/02/vue-RDC-960x560.jpg"
    },
    "id": 145,
    "latitude": 48.885414587971376,
    "longitude": 2.356521554054571
  },
  {
    "NOM": "StartUp Palace",
    "ADRESSE": "18 Rue Scribe",
    "CP": "44000",
    "VILLE": "Nantes",
    "WEB": "www.startup-palace.com",
    "IMG": {
      "URL": "https://www.deskmag.com/images/articleimages/original/deskmag-coworking-6191.png"
    },
    "id": 147,
    "latitude": 47.21461619436212,
    "longitude": -1.5625985883204305
  },
  {
    "NOM": "Start-Way",
    "ADRESSE": "6 Rue Guy-de-Gouyon du Verger",
    "CP": "94110",
    "VILLE": "Arceuil",
    "WEB": "www.start-way.com",
    "IMG": {
      "URL": "https://uploads.lebonbon.fr/source/2019/january/t59rj4f5gu_2_675.jpg"
    },
    "id": 148,
    "latitude": 48.803889109306155,
    "longitude": 2.3254513000795343
  },
  {
    "NOM": "Start-Way",
    "ADRESSE": "1 impasse du Bel Air",
    "CP": "94110",
    "VILLE": "Arceuil",
    "WEB": "www.start-way.com",
    "IMG": {
      "URL": "https://uploads.lebonbon.fr/source/2019/january/t59rj4f5gu_2_675.jpg"
    },
    "id": 149,
    "latitude": 48.80507163833838,
    "longitude": 2.3358811117235008
  },
  {
    "NOM": "Start-Way",
    "ADRESSE": "100 Boulevard Beaumarchais",
    "CP": "75003",
    "VILLE": "Paris",
    "WEB": "www.start-way.com",
    "IMG": {
      "URL": "https://uploads.lebonbon.fr/source/2019/january/t59rj4f5gu_2_675.jpg"
    },
    "id": 150,
    "latitude": 48.86062079735392,
    "longitude": 2.3676700847387173
  },
  {
    "NOM": "Start-Way",
    "ADRESSE": "94 Rue des Sorins",
    "CP": "93100",
    "VILLE": "Montreuil",
    "WEB": "www.start-way.com",
    "IMG": {
      "URL": "https://www.deskmag.com/images/articleimages/original/deskmag-coworking-6191.png"
    },
    "id": 152,
    "latitude": 48.858535518940805,
    "longitude": 2.4240156865878544
  },
  {
    "NOM": "The Fashion Loft",
    "ADRESSE": "42 Rue d'Enghien",
    "CP": "75010",
    "VILLE": "Paris",
    "WEB": "www.nirparis.fr",
    "IMG": {
      "URL": "https://paris-jetequitte.com/wp-content/uploads/2018/09/espace-coworking-3.jpg"
    },
    "id": 153,
    "latitude": 48.87245080109113,
    "longitude": 2.349154898232206
  },
  {
    "NOM": "Un jour ici",
    "ADRESSE": "500 Route des Lucioles",
    "CP": "06560",
    "VILLE": "Valbonne",
    "WEB": "www.unjourici.fr",
    "IMG": {
      "URL": "https://www.eu-startups.com/wp-content/uploads/2018/07/Coworking-Porto.png"
    },
    "id": 154,
    "latitude": 43.61612397020365,
    "longitude": 7.0503628809002885
  },
  {
    "NOM": "Village factory",
    "ADRESSE": "2 Rue du Lavoir",
    "CP": "72430",
    "VILLE": "Asnières-sur-Vègre",
    "WEB": "www.village-factory.net",
    "IMG": {
      "URL": "https://cap.img.pmdstatic.net/fit/http.3A.2F.2Fprd2-bone-image.2Es3-website-eu-west-1.2Eamazonaws.2Ecom.2Fcap.2F2019.2F12.2F26.2F6bd56f1d-e7a1-495b-94fa-c89b76875705.2Ejpeg/1200x630/background-color/ffffff/quality/70/cr/wqkgS3dlcmsgLyBDQVBJVEFM/5-pistes-pour-bien-choisir-votre-espace-de-coworking-1358535.jpg"
    },
    "id": 155,
    "latitude": 47.8881416,
    "longitude": -0.2329275
  },
  {
    "NOM": "Waw Coworking",
    "ADRESSE": "12 Boulevard Gambetta",
    "CP": "11100",
    "VILLE": "Narbonne",
    "WEB": "www.waw-coworking.com",
    "IMG": {
      "URL": "https://paris-jetequitte.com/wp-content/uploads/2018/09/espace-coworking-3.jpg"
    },
    "id": 156,
    "latitude": 43.1836552,
    "longitude": 3.008297
  },
  {
    "NOM": "Work and Co",
    "ADRESSE": "15 Rue du jeu de Mail",
    "CP": "59140",
    "VILLE": "Dunkerque",
    "WEB": "www.worketco.fr",
    "IMG": {
      "URL": "https://www.coworkingnantes.com/wp-content/uploads/2018/02/vue-RDC-960x560.jpg"
    },
    "id": 160,
    "latitude": 51.0271722,
    "longitude": 2.369727
  },
  {
    "NOM": "Work In La Rochelle",
    "ADRESSE": "24 Rue du Bastion Saint-Nicolas",
    "CP": "17000",
    "VILLE": "La Rochelle",
    "WEB": "www.coworking-larochelle.fr",
    "IMG": {
      "URL": "https://www.deskmag.com/images/articleimages/original/deskmag-coworking-6191.png"
    },
    "id": 161,
    "latitude": 46.1540189,
    "longitude": -1.1457873
  },
  {
    "NOM": "Work in Paris",
    "ADRESSE": "350 Rue de Vaugirard",
    "CP": "75015",
    "VILLE": "Paris",
    "WEB": "www.workinparis.com",
    "IMG": {
      "URL": "https://paris-jetequitte.com/wp-content/uploads/2018/09/espace-coworking-3.jpg"
    },
    "id": 162,
    "latitude": 48.836435630646655,
    "longitude": 2.294212427066827
  },
  {
    "NOM": "Work in Pau",
    "ADRESSE": "1 Avenue du Président Pierre Angot",
    "CP": "64000",
    "VILLE": "Pau",
    "WEB": "www.workinpau.com",
    "IMG": {
      "URL": "https://www.coworkingnantes.com/wp-content/uploads/2018/02/vue-RDC-960x560.jpg"
    },
    "id": 163,
    "latitude": 43.32035031239902,
    "longitude": -0.3675486884223441
  },
  {
    "NOM": "Zam Coworking",
    "ADRESSE": "Rue de l'Industrie",
    "CP": "51160",
    "VILLE": "Ay",
    "WEB": "www.zamcoworking.com",
    "IMG": {
      "URL": "https://uploads.lebonbon.fr/source/2019/january/t59rj4f5gu_2_675.jpg"
    },
    "id": 165,
    "latitude": 49.05109671002317,
    "longitude": 4.004304971250864
  },
  {
    "NOM": "ZeBocal",
    "ADRESSE": "21 Rue Gaston Hulin",
    "CP": "86000",
    "VILLE": "Poitiers",
    "WEB": "www.zebocal.fr",
    "IMG": {
      "URL": "https://cap.img.pmdstatic.net/fit/http.3A.2F.2Fprd2-bone-image.2Es3-website-eu-west-1.2Eamazonaws.2Ecom.2Fcap.2F2019.2F12.2F26.2F6bd56f1d-e7a1-495b-94fa-c89b76875705.2Ejpeg/1200x630/background-color/ffffff/quality/70/cr/wqkgS3dlcmsgLyBDQVBJVEFM/5-pistes-pour-bien-choisir-votre-espace-de-coworking-1358535.jpg"
    },
    "id": 166,
    "latitude": 46.582487330232304,
    "longitude": 0.3403796423472977
  },
  {
    "NOM": "We Forge",
    "ADRESSE": "25 Rue Lenepveu",
    "CP": "49000",
    "VILLE": "Angers",
    "WEB": "www.weforge.fr",
    "IMG": {
      "URL": "https://www.eu-startups.com/wp-content/uploads/2018/07/Coworking-Porto.png"
    },
    "id": 167,
    "latitude": 47.4721218,
    "longitude": -0.5511602
  },
  {
    "NOM": "Weecolab",
    "ADRESSE": "53 Rue Pomme d'Or",
    "CP": "33300",
    "VILLE": "Bordeaux",
    "WEB": "www.weecolab.com",
    "IMG": {
      "URL": "https://spaces-wp.imgix.net/2019/04/Spaces-hennessy-road-hong-kong-hong-kong-flexible-work-space.jpg?auto=compress,format&q=30&ar=2.46:1&&fit=crop&h=584"
    },
    "id": 168,
    "latitude": 44.8541841,
    "longitude": -0.5702014
  },
  {
    "NOM": "Weréso",
    "ADRESSE": "104 Rue nationale",
    "CP": "59800",
    "VILLE": "Lille",
    "IMG": {
      "URL": "https://www.coworkingnantes.com/wp-content/uploads/2018/02/vue-RDC-960x560.jpg"
    },
    "id": 169,
    "WEB": "www.wereso.com",
    "latitude": 50.6353783,
    "longitude": 3.0583989
  }
]
